{
            "key": "IN/500001",
            "place_name": "Wallaee Street",
            "admin_name1": "Andhra Pradesh",
            "latitude": "16.7024",
            "longitude": "78.1036"
        },
        {
            "key": "IN/500002",
            "place_name": "Tagarikanaka",
            "admin_name1": "Andhra Pradesh",
            "latitude": "16.7024",
            "longitude": "78.1036"
        },
        {
            "key": "IN/500003",
            "place_name": "Gandhi Hospital",
            "admin_name1": "Andhra Pradesh",
            "latitude": "16.7024",
            "longitude": "78.1036"
        },
        {
            "key": "IN/500004",
            "place_name": "G M Telephones",
            "admin_name1": "Andhra Pradesh",
            "latitude": "16.7024",
            "longitude": "78.1036"
        },
        {
            "key": "IN/500007",
            "place_name": "Jama I Osmania Hyderabad",
            "admin_name1": "Andhra Pradesh",
            "latitude": "16.7024",
            "longitude": "78.1036"
        },
        {
            "key": "IN/500008",
            "place_name": "Langar House",
            "admin_name1": "Andhra Pradesh",
            "latitude": "16.7024",
            "longitude": "78.1036"
        },
        {
            "key": "IN/500010",
            "place_name": "Haig Lines",
            "admin_name1": "Andhra Pradesh",
            "latitude": "17.4381",
            "longitude": "78.5406"
        },
        {
            "key": "IN/500011",
            "place_name": "Old Air Port Hyd",
            "admin_name1": "Andhra Pradesh",
            "latitude": "17.4381",
            "longitude": "78.5406"
        },
        {
            "key": "IN/500012",
            "place_name": "Afzal Gunj",
            "admin_name1": "Andhra Pradesh",
            "latitude": "17.4381",
            "longitude": "78.5406"
        },
        {
            "key": "IN/500013",
            "place_name": "Central Police Lines",
            "admin_name1": "Andhra Pradesh",
            "latitude": "17.4381",
            "longitude": "78.5406"
        },
        {
            "key": "IN/500014",
            "place_name": "Hankimpet (Hyd)",
            "admin_name1": "Andhra Pradesh",
            "latitude": "17.4381",
            "longitude": "78.5406"
        },
        {
            "key": "IN/500015",
            "place_name": "M C Eme",
            "admin_name1": "Andhra Pradesh",
            "latitude": "17.4381",
            "longitude": "78.5406"
        },
        {
            "key": "IN/500016",
            "place_name": "Old Begumpet",
            "admin_name1": "Andhra Pradesh",
            "latitude": "17.4381",
            "longitude": "78.5406"
        },
        {
            "key": "IN/500017",
            "place_name": "Lallaguda",
            "admin_name1": "Andhra Pradesh",
            "latitude": "17.4381",
            "longitude": "78.5406",
            "accuracy": "4"
        },
        {
            "key": "IN/500018",
            "place_name": "Sanathnagar",
            "admin_name1": "Andhra Pradesh",
            "latitude": "17.4381",
            "longitude": "78.5406"
        },
        {
            "key": "IN/500021",
            "place_name": "Eme Records",
            "admin_name1": "Andhra Pradesh",
            "latitude": "16.7024",
            "longitude": "78.1036"
        },
        {
            "key": "IN/500022",
            "place_name": "Central Secretariat (Hyd)",
            "admin_name1": "Andhra Pradesh",
            "latitude": "16.7024",
            "longitude": "78.1036"
        },
        {
            "key": "IN/500023",
            "place_name": "Dabirpura",
            "admin_name1": "Andhra Pradesh",
            "latitude": "16.7024",
            "longitude": "78.1036"
        },
        {
            "key": "IN/500024",
            "place_name": "Chanchalguda",
            "admin_name1": "Andhra Pradesh",
            "latitude": "16.7024",
            "longitude": "78.1036"
        },
        {
            "key": "IN/500025",
            "place_name": "Padmarao Nagar",
            "admin_name1": "Andhra Pradesh",
            "latitude": "16.7024",
            "longitude": "78.1036"
        },
        {
            "key": "IN/500026",
            "place_name": "West Maredpalli",
            "admin_name1": "Andhra Pradesh",
            "latitude": "16.7024",
            "longitude": "78.1036"
        },
        {
            "key": "IN/500027",
            "place_name": "Barkatpura",
            "admin_name1": "Andhra Pradesh",
            "latitude": "16.7024",
            "longitude": "78.1036"
        },
        {
            "key": "IN/500028",
            "place_name": "Datta Treya Colony",
            "admin_name1": "Andhra Pradesh",
            "latitude": "16.7024",
            "longitude": "78.1036"
        },
        {
            "key": "IN/500029",
            "place_name": "Himayat Nagar East",
            "admin_name1": "Andhra Pradesh",
            "latitude": "16.7024",
            "longitude": "78.1036"
        },
        {
            "key": "IN/500030",
            "place_name": "Rajendranagar (Hyd)",
            "admin_name1": "Andhra Pradesh",
            "latitude": "15.9667",
            "longitude": "77.6667"
        },
        {
            "key": "IN/500031",
            "place_name": "Ibrahim Bagh Lines Hyderabad",
            "admin_name1": "Andhra Pradesh",
            "latitude": "15.9667",
            "longitude": "77.6667"
        },
        {
            "key": "IN/500032",
            "place_name": "Gachibowli",
            "admin_name1": "Andhra Pradesh",
            "latitude": "15.9667",
            "longitude": "77.6667"
        },
        {
            "key": "IN/500034",
            "place_name": "Banjara Hills Hyderabad",
            "admin_name1": "Andhra Pradesh",
            "latitude": "15.9667",
            "longitude": "77.6667"
        },
        {
            "key": "IN/500035",
            "place_name": "Injapur",
            "admin_name1": "Andhra Pradesh",
            "latitude": "15.9667",
            "longitude": "77.6667"
        },
        {
            "key": "IN/500036",
            "place_name": "Osman Nagar",
            "admin_name1": "Andhra Pradesh",
            "latitude": "15.9667",
            "longitude": "77.6667"
        },
        {
            "key": "IN/500037",
            "place_name": "T I E Balanagar",
            "admin_name1": "Andhra Pradesh",
            "latitude": "15.9667",
            "longitude": "77.6667"
        },
        {
            "key": "IN/500038",
            "place_name": "B K Guda",
            "admin_name1": "Andhra Pradesh",
            "latitude": "15.9667",
            "longitude": "77.6667"
        },
        {
            "key": "IN/500039",
            "place_name": "Uppal",
            "admin_name1": "Andhra Pradesh",
            "latitude": "15.9667",
            "longitude": "77.6667",
            "accuracy": "4"
        },
        {
            "key": "IN/500040",
            "place_name": "Industrial Estate Moulali",
            "admin_name1": "Andhra Pradesh",
            "latitude": "16.7024",
            "longitude": "78.1036"
        },
        {
            "key": "IN/500041",
            "place_name": "Raj Bhavan (Hyd)",
            "admin_name1": "Andhra Pradesh",
            "latitude": "16.7024",
            "longitude": "78.1036"
        },
        {
            "key": "IN/500042",
            "place_name": "Hindustan Aeronautics Hyd",
            "admin_name1": "Andhra Pradesh",
            "latitude": "16.7024",
            "longitude": "78.1036"
        },
        {
            "key": "IN/500044",
            "place_name": "Nallakunta",
            "admin_name1": "Andhra Pradesh",
            "latitude": "16.7024",
            "longitude": "78.1036"
        },
        {
            "key": "IN/500045",
            "place_name": "Padmavatinagar",
            "admin_name1": "Andhra Pradesh",
            "latitude": "16.7024",
            "longitude": "78.1036"
        },
        {
            "key": "IN/500047",
            "place_name": "Safilguda",
            "admin_name1": "Andhra Pradesh",
            "latitude": "16.7024",
            "longitude": "78.1036"
        },
        {
            "key": "IN/500048",
            "place_name": "Bakaram",
            "admin_name1": "Andhra Pradesh",
            "latitude": "16.7024",
            "longitude": "78.1036"
        },
        {
            "key": "IN/500049",
            "place_name": "A P S E Board (Hyd)",
            "admin_name1": "Andhra Pradesh",
            "latitude": "16.7024",
            "longitude": "78.1036"
        },
        {
            "key": "IN/500051",
            "place_name": "Hindustan Machine",
            "admin_name1": "Andhra Pradesh",
            "latitude": "16.7024",
            "longitude": "78.1036"
        },
        {
            "key": "IN/500133",
            "place_name": "Lingam Palli (Hyd)",
            "admin_name1": "Andhra Pradesh",
            "latitude": "16.7024",
            "longitude": "78.1036"
        },
        {
            "key": "IN/500134",
            "place_name": "Central University Campus",
            "admin_name1": "Andhra Pradesh",
            "latitude": "16.7024",
            "longitude": "78.1036"
        },
        {
            "key": "IN/500171",
            "place_name": "Chaitanya Bharati (Hyd)",
            "admin_name1": "Andhra Pradesh",
            "latitude": "16.7024",
            "longitude": "78.1036"
        },
        {
            "key": "IN/500252",
            "place_name": "Academy (Hyderabad)",
            "admin_name1": "Andhra Pradesh",
            "latitude": "16.7024",
            "longitude": "78.1036"
        },
        {
            "key": "IN/500253",
            "place_name": "Falaknuma Hyd",
            "admin_name1": "Andhra Pradesh",
            "latitude": "16.7024",
            "longitude": "78.1036"
        },
        {
            "key": "IN/500264",
            "place_name": "Bahadur Purra (Hyd)",
            "admin_name1": "Andhra Pradesh",
            "latitude": "16.7024",
            "longitude": "78.1036"
        },
        {
            "key": "IN/500265",
            "place_name": "Fateh Darwaza",
            "admin_name1": "Andhra Pradesh",
            "latitude": "16.7024",
            "longitude": "78.1036"
        },
        {
            "key": "IN/500266",
            "place_name": "High Court Hyderabad",
            "admin_name1": "Andhra Pradesh",
            "latitude": "16.7024",
            "longitude": "78.1036"
        },
        {
            "key": "IN/500380",
            "place_name": "Gandhi Nagar (Hyd)",
            "admin_name1": "Andhra Pradesh",
            "latitude": "16.7024",
            "longitude": "78.1036"
        },
        {
            "key": "IN/500463",
            "place_name": "A Gs OFFICE",
            "admin_name1": "Andhra Pradesh",
            "latitude": "16.7024",
            "longitude": "78.1036"
        },
        {
            "key": "IN/500587",
            "place_name": "Jai Jawahar Nagar",
            "admin_name1": "Andhra Pradesh",
            "latitude": "16.7024",
            "longitude": "78.1036"
        },
        {
            "key": "IN/500594",
            "place_name": "Sainikpuri (Secbad)",
            "admin_name1": "Andhra Pradesh",
            "latitude": "16.7024",
            "longitude": "78.1036"
        },
        {
            "key": "IN/500659",
            "place_name": "Saidabad Colony",
            "admin_name1": "Andhra Pradesh",
            "latitude": "16.7024",
            "longitude": "78.1036"
        },
        {
            "key": "IN/500660",
            "place_name": "P & T Colony (Ga) (H/D)",
            "admin_name1": "Andhra Pradesh",
            "latitude": "16.7024",
            "longitude": "78.1036"
        },
        {
            "key": "IN/500661",
            "place_name": "Vanavolu",
            "admin_name1": "Andhra Pradesh",
            "latitude": "16.7024",
            "longitude": "78.1036"
        },
        {
            "key": "IN/500762",
            "place_name": "Ecil Hyderabad",
            "admin_name1": "Andhra Pradesh",
            "latitude": "16.7024",
            "longitude": "78.1036"
        },
        {
            "key": "IN/500768",
            "place_name": "Central Training Institute",
            "admin_name1": "Andhra Pradesh",
            "latitude": "16.7024",
            "longitude": "78.1036"
        },
        {
            "key": "IN/500855",
            "place_name": "Ind Dev Are Jeed Hyd",
            "admin_name1": "Andhra Pradesh",
            "latitude": "16.7024",
            "longitude": "78.1036"
        },
        {
            "key": "IN/500890",
            "place_name": "A Gs OFFICE STAFF",
            "admin_name1": "Andhra Pradesh",
            "latitude": "16.7024",
            "longitude": "78.1036"
        },
        {
            "key": "IN/500963",
            "place_name": "Lal Bahadur Nagar (Hyd)",
            "admin_name1": "Andhra Pradesh",
            "latitude": "16.7024",
            "longitude": "78.1036"
        },
        {
            "key": "IN/501103",
            "place_name": "Ekmamidi",
            "admin_name1": "Andhra Pradesh",
            "latitude": "18.1308",
            "longitude": "79.1847"
        },
        {
            "key": "IN/501106",
            "place_name": "Kalkoda",
            "admin_name1": "Andhra Pradesh",
            "latitude": "18.1308",
            "longitude": "79.1847"
        },
        {
            "key": "IN/501114",
            "place_name": "Madireddi Palli",
            "admin_name1": "Andhra Pradesh",
            "latitude": "18.1308",
            "longitude": "79.1847"
        },
        {
            "key": "IN/501141",
            "place_name": "Tandur",
            "admin_name1": "Andhra Pradesh",
            "latitude": "19.15",
            "longitude": "79.4667",
            "accuracy": "4"
        },
        {
            "key": "IN/501142",
            "place_name": "Jangaon",
            "admin_name1": "Andhra Pradesh",
            "latitude": "17.1117",
            "longitude": "78.9028",
            "accuracy": "4"
        },
        {
            "key": "IN/501143",
            "place_name": "Basheerabad",
            "admin_name1": "Andhra Pradesh",
            "latitude": "18.1308",
            "longitude": "79.1847"
        },
        {
            "key": "IN/501144",
            "place_name": "Yalal",
            "admin_name1": "Andhra Pradesh",
            "latitude": "18.1308",
            "longitude": "79.1847"
        },
        {
            "key": "IN/501146",
            "place_name": "Agnoor",
            "admin_name1": "Andhra Pradesh",
            "latitude": "18.1308",
            "longitude": "79.1847"
        },
        {
            "key": "IN/501150",
            "place_name": "Yekmai",
            "admin_name1": "Andhra Pradesh",
            "latitude": "18.1308",
            "longitude": "79.1847"
        },
        {
            "key": "IN/501152",
            "place_name": "Indoor",
            "admin_name1": "Andhra Pradesh",
            "latitude": "18.1308",
            "longitude": "79.1847"
        },
        {
            "key": "IN/501155",
            "place_name": "Pagdial",
            "admin_name1": "Andhra Pradesh",
            "latitude": "18.1308",
            "longitude": "79.1847"
        },
        {
            "key": "IN/501158",
            "place_name": "C C I (Tandur)",
            "admin_name1": "Andhra Pradesh",
            "latitude": "18.1308",
            "longitude": "79.1847"
        },
        {
            "key": "IN/501206",
            "place_name": "Yenkatla",
            "admin_name1": "Andhra Pradesh",
            "latitude": "17.5091",
            "longitude": "78.8475"
        },
        {
            "key": "IN/501504",
            "place_name": "Himayat Nagar",
            "admin_name1": "Andhra Pradesh",
            "latitude": "17.1633",
            "longitude": "78.6629"
        },
        {
            "key": "IN/501505",
            "place_name": "Hayatnagar",
            "admin_name1": "Andhra Pradesh",
            "latitude": "17.3239",
            "longitude": "78.6042",
            "accuracy": "4"
        },
        {
            "key": "IN/501506",
            "place_name": "Ibrahimpatnam",
            "admin_name1": "Andhra Pradesh",
            "latitude": "17.1633",
            "longitude": "78.6629"
        },
        {
            "key": "IN/501508",
            "place_name": "Japal",
            "admin_name1": "Andhra Pradesh",
            "latitude": "17.1203",
            "longitude": "78.7178",
            "accuracy": "4"
        },
        {
            "key": "IN/501509",
            "place_name": "Yacharam",
            "admin_name1": "Andhra Pradesh",
            "latitude": "17.0458",
            "longitude": "78.6667",
            "accuracy": "4"
        },
        {
            "key": "IN/501528",
            "place_name": "Batasingaram",
            "admin_name1": "Andhra Pradesh",
            "latitude": "17.3031",
            "longitude": "78.7272",
            "accuracy": "4"
        },
        {
            "key": "IN/502001",
            "place_name": "Hanuman Nagar",
            "admin_name1": "Andhra Pradesh",
            "latitude": "16.6289",
            "longitude": "80.0624"
        },
        {
            "key": "IN/502101",
            "place_name": "Rahimkhanpot",
            "admin_name1": "Andhra Pradesh",
            "latitude": "16.1667",
            "longitude": "81.1667"
        },
        {
            "key": "IN/502103",
            "place_name": "Indira Nagar Colony",
            "admin_name1": "Andhra Pradesh",
            "latitude": "16.1667",
            "longitude": "81.1667"
        },
        {
            "key": "IN/502109",
            "place_name": "Machavaram",
            "admin_name1": "Andhra Pradesh",
            "latitude": "16.1667",
            "longitude": "81.1667"
        },
        {
            "key": "IN/502110",
            "place_name": "Fort",
            "admin_name1": "Andhra Pradesh",
            "latitude": "16.1667",
            "longitude": "81.1667",
            "accuracy": "4"
        },
        {
            "key": "IN/502113",
            "place_name": "Havoli Ghanapur",
            "admin_name1": "Andhra Pradesh",
            "latitude": "16.1667",
            "longitude": "81.1667"
        },
        {
            "key": "IN/502117",
            "place_name": "Rajpalli",
            "admin_name1": "Andhra Pradesh",
            "latitude": "16.1667",
            "longitude": "81.1667"
        },
        {
            "key": "IN/502220",
            "place_name": "Zahirabvad Ganj",
            "admin_name1": "Andhra Pradesh",
            "latitude": "16.6289",
            "longitude": "80.0624"
        },
        {
            "key": "IN/502228",
            "place_name": "Madhu Nagar",
            "admin_name1": "Andhra Pradesh",
            "latitude": "16.6289",
            "longitude": "80.0624"
        },
        {
            "key": "IN/502246",
            "place_name": "Zarasangam",
            "admin_name1": "Andhra Pradesh",
            "latitude": "16.6289",
            "longitude": "80.0624"
        },
        {
            "key": "IN/502251",
            "place_name": "Handnoor",
            "admin_name1": "Andhra Pradesh",
            "latitude": "16.6289",
            "longitude": "80.0624"
        },
        {
            "key": "IN/502257",
            "place_name": "Rai Kode",
            "admin_name1": "Andhra Pradesh",
            "latitude": "16.6289",
            "longitude": "80.0624"
        },
        {
            "key": "IN/502267",
            "place_name": "Ibrahim Nagar",
            "admin_name1": "Andhra Pradesh",
            "latitude": "16.6289",
            "longitude": "80.0624"
        },
        {
            "key": "IN/502281",
            "place_name": "Jagadevpur",
            "admin_name1": "Andhra Pradesh",
            "latitude": "16.6289",
            "longitude": "80.0624"
        },
        {
            "key": "IN/502284",
            "place_name": "Raj Gopal Pet",
            "admin_name1": "Andhra Pradesh",
            "latitude": "16.6289",
            "longitude": "80.0624"
        },
        {
            "key": "IN/502291",
            "place_name": "Sadashivpet Bazar",
            "admin_name1": "Andhra Pradesh",
            "latitude": "16.6289",
            "longitude": "80.0624"
        },
        {
            "key": "IN/502305",
            "place_name": "Dhanora",
            "admin_name1": "Andhra Pradesh",
            "latitude": "17.0911",
            "longitude": "78.9581"
        },
        {
            "key": "IN/502307",
            "place_name": "Idapasham",
            "admin_name1": "Andhra Pradesh",
            "latitude": "17.0911",
            "longitude": "78.9581"
        },
        {
            "key": "IN/502308",
            "place_name": "Nagi Reddi Pet",
            "admin_name1": "Andhra Pradesh",
            "latitude": "17.0911",
            "longitude": "78.9581"
        },
        {
            "key": "IN/502323",
            "place_name": "Yelmakanna",
            "admin_name1": "Andhra Pradesh",
            "latitude": "17.0911",
            "longitude": "78.9581",
            "accuracy": "4"
        },
        {
            "key": "IN/502324",
            "place_name": "Icrisat (I C R I S A T)",
            "admin_name1": "Andhra Pradesh",
            "latitude": "17.0911",
            "longitude": "78.9581"
        },
        {
            "key": "IN/502330",
            "place_name": "Indrakannu",
            "admin_name1": "Andhra Pradesh",
            "latitude": "17.0911",
            "longitude": "78.9581"
        },
        {
            "key": "IN/502375",
            "place_name": "Palamkole",
            "admin_name1": "Andhra Pradesh",
            "latitude": "17.0911",
            "longitude": "78.9581"
        },
        {
            "key": "IN/503001",
            "place_name": "Gandhi Gunj",
            "admin_name1": "Andhra Pradesh",
            "latitude": "18.4135",
            "longitude": "78.1415"
        },
        {
            "key": "IN/503002",
            "place_name": "Namdewada",
            "admin_name1": "Andhra Pradesh",
            "latitude": "18.4135",
            "longitude": "78.1415"
        },
        {
            "key": "IN/503102",
            "place_name": "Jangampalli",
            "admin_name1": "Andhra Pradesh",
            "latitude": "17.9942",
            "longitude": "78.2742",
            "accuracy": "4"
        },
        {
            "key": "IN/503103",
            "place_name": "Talmadla",
            "admin_name1": "Andhra Pradesh",
            "latitude": "17.9942",
            "longitude": "78.2742"
        },
        {
            "key": "IN/503110",
            "place_name": "Rajampet (Kamareddy)",
            "admin_name1": "Andhra Pradesh",
            "latitude": "18.4",
            "longitude": "78.1333"
        },
        {
            "key": "IN/503111",
            "place_name": "Jagajivan Ramnagar",
            "admin_name1": "Andhra Pradesh",
            "latitude": "18.4",
            "longitude": "78.1333"
        },
        {
            "key": "IN/503114",
            "place_name": "Gandhari",
            "admin_name1": "Andhra Pradesh",
            "latitude": "18.4",
            "longitude": "78.1333",
            "accuracy": "4"
        },
        {
            "key": "IN/503120",
            "place_name": "Yerra Pahad",
            "admin_name1": "Andhra Pradesh",
            "latitude": "18.2833",
            "longitude": "78.1917"
        },
        {
            "key": "IN/503122",
            "place_name": "Y R Old Town",
            "admin_name1": "Andhra Pradesh",
            "latitude": "18.2833",
            "longitude": "78.1917"
        },
        {
            "key": "IN/503124",
            "place_name": "Demi",
            "admin_name1": "Andhra Pradesh",
            "latitude": "18.3333",
            "longitude": "78.2333",
            "accuracy": "4"
        },
        {
            "key": "IN/503145",
            "place_name": "Sadsivnagar",
            "admin_name1": "Andhra Pradesh",
            "latitude": "18.2688",
            "longitude": "78.1348"
        },
        {
            "key": "IN/503164",
            "place_name": "Indalwai R S",
            "admin_name1": "Andhra Pradesh",
            "latitude": "18.2688",
            "longitude": "78.1348"
        },
        {
            "key": "IN/503165",
            "place_name": "Darpalli",
            "admin_name1": "Andhra Pradesh",
            "latitude": "18.2688",
            "longitude": "78.1348"
        },
        {
            "key": "IN/503176",
            "place_name": "Nadepalli",
            "admin_name1": "Andhra Pradesh",
            "latitude": "18.2688",
            "longitude": "78.1348"
        },
        {
            "key": "IN/503178",
            "place_name": "Padkal",
            "admin_name1": "Andhra Pradesh",
            "latitude": "18.2688",
            "longitude": "78.1348"
        },
        {
            "key": "IN/503180",
            "place_name": "Camp Ootpalli",
            "admin_name1": "Andhra Pradesh",
            "latitude": "18.3833",
            "longitude": "77.8833"
        },
        {
            "key": "IN/503187",
            "place_name": "Banswada",
            "admin_name1": "Andhra Pradesh",
            "latitude": "18.3833",
            "longitude": "77.8833",
            "accuracy": "4"
        },
        {
            "key": "IN/503193",
            "place_name": "Jankampet R S",
            "admin_name1": "Andhra Pradesh",
            "latitude": "18.2688",
            "longitude": "78.1348"
        },
        {
            "key": "IN/503201",
            "place_name": "Varni",
            "admin_name1": "Andhra Pradesh",
            "latitude": "18.6833",
            "longitude": "77.9667"
        },
        {
            "key": "IN/503202",
            "place_name": "Edpalli",
            "admin_name1": "Andhra Pradesh",
            "latitude": "18.6833",
            "longitude": "77.9667",
            "accuracy": "4"
        },
        {
            "key": "IN/503217",
            "place_name": "Balkonda",
            "admin_name1": "Andhra Pradesh",
            "latitude": "18.8667",
            "longitude": "78.35",
            "accuracy": "4"
        },
        {
            "key": "IN/503220",
            "place_name": "Fathepur",
            "admin_name1": "Andhra Pradesh",
            "latitude": "18.775",
            "longitude": "78.1583"
        },
        {
            "key": "IN/503224",
            "place_name": "Ziryatnagar",
            "admin_name1": "Andhra Pradesh",
            "latitude": "18.775",
            "longitude": "78.1583"
        },
        {
            "key": "IN/503225",
            "place_name": "Palem",
            "admin_name1": "Andhra Pradesh",
            "latitude": "18.775",
            "longitude": "78.1583"
        },
        {
            "key": "IN/503230",
            "place_name": "Dharamaram",
            "admin_name1": "Andhra Pradesh",
            "latitude": "18.775",
            "longitude": "78.1583"
        },
        {
            "key": "IN/503231",
            "place_name": "Bardipur",
            "admin_name1": "Andhra Pradesh",
            "latitude": "18.775",
            "longitude": "78.1583"
        },
        {
            "key": "IN/503246",
            "place_name": "Jannepalli",
            "admin_name1": "Andhra Pradesh",
            "latitude": "18.775",
            "longitude": "78.1583"
        },
        {
            "key": "IN/503309",
            "place_name": "Madnoor",
            "admin_name1": "Andhra Pradesh",
            "latitude": "18.4135",
            "longitude": "78.1415"
        },
        {
            "key": "IN/503311",
            "place_name": "Vailpur",
            "admin_name1": "Andhra Pradesh",
            "latitude": "18.4135",
            "longitude": "78.1415"
        },
        {
            "key": "IN/503313",
            "place_name": "Vannel B",
            "admin_name1": "Andhra Pradesh",
            "latitude": "18.4135",
            "longitude": "78.1415"
        },
        {
            "key": "IN/503315",
            "place_name": "Padgal",
            "admin_name1": "Andhra Pradesh",
            "latitude": "18.4135",
            "longitude": "78.1415"
        },
        {
            "key": "IN/504001",
            "place_name": "Adilabad H O",
            "admin_name1": "Andhra Pradesh",
            "latitude": "19.2833",
            "longitude": "78.1917"
        },
        {
            "key": "IN/504002",
            "place_name": "Adilabad Collecotorate",
            "admin_name1": "Andhra Pradesh",
            "latitude": "19.2833",
            "longitude": "78.1917"
        },
        {
            "key": "IN/504101",
            "place_name": "Basar",
            "admin_name1": "Andhra Pradesh",
            "latitude": "18.8833",
            "longitude": "77.9667",
            "accuracy": "4"
        },
        {
            "key": "IN/504106",
            "place_name": "Indra Nagar",
            "admin_name1": "Andhra Pradesh",
            "latitude": "18.8833",
            "longitude": "77.9667"
        },
        {
            "key": "IN/504205",
            "place_name": "Jannaram",
            "admin_name1": "Andhra Pradesh",
            "latitude": "19.2833",
            "longitude": "78.1917"
        },
        {
            "key": "IN/504206",
            "place_name": "Dandepalli",
            "admin_name1": "Andhra Pradesh",
            "latitude": "19.2833",
            "longitude": "78.1917"
        },
        {
            "key": "IN/504209",
            "place_name": "Cement Works",
            "admin_name1": "Andhra Pradesh",
            "latitude": "19.2833",
            "longitude": "78.1917"
        },
        {
            "key": "IN/504215",
            "place_name": "Laxshotti Pet",
            "admin_name1": "Andhra Pradesh",
            "latitude": "19.2833",
            "longitude": "78.1917"
        },
        {
            "key": "IN/504216",
            "place_name": "Jaipur Adilabad",
            "admin_name1": "Andhra Pradesh",
            "latitude": "19.2833",
            "longitude": "78.1917"
        },
        {
            "key": "IN/504218",
            "place_name": "Devapur (Cement Works)",
            "admin_name1": "Andhra Pradesh",
            "latitude": "19.2833",
            "longitude": "78.1917"
        },
        {
            "key": "IN/504220",
            "place_name": "Madaram Town Shop",
            "admin_name1": "Andhra Pradesh",
            "latitude": "19.2833",
            "longitude": "78.1917"
        },
        {
            "key": "IN/504231",
            "place_name": "Kalyani Khani",
            "admin_name1": "Andhra Pradesh",
            "latitude": "19.2833",
            "longitude": "78.1917"
        },
        {
            "key": "IN/504251",
            "place_name": "A G M Colony",
            "admin_name1": "Andhra Pradesh",
            "latitude": "19.2833",
            "longitude": "78.1917"
        },
        {
            "key": "IN/504272",
            "place_name": "Tandur (Adb)",
            "admin_name1": "Andhra Pradesh",
            "latitude": "19.2833",
            "longitude": "78.1917"
        },
        {
            "key": "IN/504295",
            "place_name": "Wakndi",
            "admin_name1": "Andhra Pradesh",
            "latitude": "19.2833",
            "longitude": "78.1917"
        },
        {
            "key": "IN/504296",
            "place_name": "Old Town",
            "admin_name1": "Andhra Pradesh",
            "latitude": "19.2833",
            "longitude": "78.1917"
        },
        {
            "key": "IN/504305",
            "place_name": "Hatnoor",
            "admin_name1": "Andhra Pradesh",
            "latitude": "19.6833",
            "longitude": "78.4167"
        },
        {
            "key": "IN/504307",
            "place_name": "Echoda",
            "admin_name1": "Andhra Pradesh",
            "latitude": "19.6833",
            "longitude": "78.4167"
        },
        {
            "key": "IN/504311",
            "place_name": "Ootnur",
            "admin_name1": "Andhra Pradesh",
            "latitude": "19.6833",
            "longitude": "78.4167"
        },
        {
            "key": "IN/504312",
            "place_name": "Tamsi",
            "admin_name1": "Andhra Pradesh",
            "latitude": "19.6833",
            "longitude": "78.4167",
            "accuracy": "4"
        },
        {
            "key": "IN/504313",
            "place_name": "Jainur",
            "admin_name1": "Andhra Pradesh",
            "latitude": "19.6833",
            "longitude": "78.4167"
        },
        {
            "key": "IN/504321",
            "place_name": "Wankdi",
            "admin_name1": "Andhra Pradesh",
            "latitude": "19.6833",
            "longitude": "78.4167"
        },
        {
            "key": "IN/504325",
            "place_name": "Jainad",
            "admin_name1": "Andhra Pradesh",
            "latitude": "19.6833",
            "longitude": "78.4167"
        },
        {
            "key": "IN/504340",
            "place_name": "Nachan Yellapur",
            "admin_name1": "Andhra Pradesh",
            "latitude": "19.6833",
            "longitude": "78.4167"
        },
        {
            "key": "IN/504342",
            "place_name": "Indarpalli",
            "admin_name1": "Andhra Pradesh",
            "latitude": "19.6833",
            "longitude": "78.4167"
        },
        {
            "key": "IN/504344",
            "place_name": "Hajipur",
            "admin_name1": "Andhra Pradesh",
            "latitude": "19.6833",
            "longitude": "78.4167"
        },
        {
            "key": "IN/504346",
            "place_name": "Indervalli",
            "admin_name1": "Andhra Pradesh",
            "latitude": "19.6833",
            "longitude": "78.4167"
        },
        {
            "key": "IN/505001",
            "place_name": "K Nagar Bus Stand",
            "admin_name1": "Andhra Pradesh",
            "latitude": "17.448",
            "longitude": "78.5913"
        },
        {
            "key": "IN/505002",
            "place_name": "Jawahar Nagar",
            "admin_name1": "Andhra Pradesh",
            "latitude": "17.448",
            "longitude": "78.5913"
        },
        {
            "key": "IN/505101",
            "place_name": "Uppal (Knr)",
            "admin_name1": "Andhra Pradesh",
            "latitude": "17.448",
            "longitude": "78.5913"
        },
        {
            "key": "IN/505102",
            "place_name": "Vagapalli",
            "admin_name1": "Andhra Pradesh",
            "latitude": "17.448",
            "longitude": "78.5913"
        },
        {
            "key": "IN/505122",
            "place_name": "Jammikunta",
            "admin_name1": "Andhra Pradesh",
            "latitude": "17.448",
            "longitude": "78.5913"
        },
        {
            "key": "IN/505152",
            "place_name": "Madka",
            "admin_name1": "Andhra Pradesh",
            "latitude": "17.448",
            "longitude": "78.5913"
        },
        {
            "key": "IN/505173",
            "place_name": "Raghavapur",
            "admin_name1": "Andhra Pradesh",
            "latitude": "17.448",
            "longitude": "78.5913"
        },
        {
            "key": "IN/505184",
            "place_name": "Nagaram",
            "admin_name1": "Andhra Pradesh",
            "latitude": "17.1842",
            "longitude": "78.3897"
        },
        {
            "key": "IN/505187",
            "place_name": "Basant Nagar",
            "admin_name1": "Andhra Pradesh",
            "latitude": "17.448",
            "longitude": "78.5913"
        },
        {
            "key": "IN/505188",
            "place_name": "Adivarampet",
            "admin_name1": "Andhra Pradesh",
            "latitude": "17.448",
            "longitude": "78.5913"
        },
        {
            "key": "IN/505208",
            "place_name": "Abadi Ramagundam",
            "admin_name1": "Andhra Pradesh",
            "latitude": "17.448",
            "longitude": "78.5913"
        },
        {
            "key": "IN/505209",
            "place_name": "Madpalli",
            "admin_name1": "Andhra Pradesh",
            "latitude": "17.448",
            "longitude": "78.5913"
        },
        {
            "key": "IN/505210",
            "place_name": "Fertilizer City",
            "admin_name1": "Andhra Pradesh",
            "latitude": "17.448",
            "longitude": "78.5913"
        },
        {
            "key": "IN/505301",
            "place_name": "Gandhi Chowk",
            "admin_name1": "Andhra Pradesh",
            "latitude": "17.448",
            "longitude": "78.5913"
        },
        {
            "key": "IN/505305",
            "place_name": "Racharla Boppapur",
            "admin_name1": "Andhra Pradesh",
            "latitude": "17.448",
            "longitude": "78.5913"
        },
        {
            "key": "IN/505327",
            "place_name": "Jagtial H O",
            "admin_name1": "Andhra Pradesh",
            "latitude": "17.448",
            "longitude": "78.5913"
        },
        {
            "key": "IN/505401",
            "place_name": "Elgandal",
            "admin_name1": "Andhra Pradesh",
            "latitude": "17.448",
            "longitude": "78.5913"
        },
        {
            "key": "IN/505405",
            "place_name": "Tadoor",
            "admin_name1": "Andhra Pradesh",
            "latitude": "17.448",
            "longitude": "78.5913"
        },
        {
            "key": "IN/505407",
            "place_name": "Bandankal",
            "admin_name1": "Andhra Pradesh",
            "latitude": "17.448",
            "longitude": "78.5913"
        },
        {
            "key": "IN/505413",
            "place_name": "Vablapur",
            "admin_name1": "Andhra Pradesh",
            "latitude": "17.448",
            "longitude": "78.5913"
        },
        {
            "key": "IN/505417",
            "place_name": "Nagnoor",
            "admin_name1": "Andhra Pradesh",
            "latitude": "17.448",
            "longitude": "78.5913"
        },
        {
            "key": "IN/505425",
            "place_name": "Dharamapuri",
            "admin_name1": "Andhra Pradesh",
            "latitude": "17.448",
            "longitude": "78.5913"
        },
        {
            "key": "IN/505450",
            "place_name": "Ibrahimpathnam (Knr)",
            "admin_name1": "Andhra Pradesh",
            "latitude": "17.448",
            "longitude": "78.5913"
        },
        {
            "key": "IN/505460",
            "place_name": "Raikal",
            "admin_name1": "Andhra Pradesh",
            "latitude": "17.0086",
            "longitude": "78.1908",
            "accuracy": "4"
        },
        {
            "key": "IN/505467",
            "place_name": "Husnabad",
            "admin_name1": "Andhra Pradesh",
            "latitude": "17.0667",
            "longitude": "77.65",
            "accuracy": "4"
        },
        {
            "key": "IN/505470",
            "place_name": "Kachapur",
            "admin_name1": "Andhra Pradesh",
            "latitude": "17.7216",
            "longitude": "79.0386"
        },
        {
            "key": "IN/505472",
            "place_name": "Saidapur",
            "admin_name1": "Andhra Pradesh",
            "latitude": "17.6183",
            "longitude": "78.9458",
            "accuracy": "4"
        },
        {
            "key": "IN/505474",
            "place_name": "Tadikal",
            "admin_name1": "Andhra Pradesh",
            "latitude": "18.3167",
            "longitude": "79.2833",
            "accuracy": "4"
        },
        {
            "key": "IN/505475",
            "place_name": "Vavilal",
            "admin_name1": "Andhra Pradesh",
            "latitude": "17.7216",
            "longitude": "79.0386"
        },
        {
            "key": "IN/505476",
            "place_name": "Damera",
            "admin_name1": "Andhra Pradesh",
            "latitude": "17.2297",
            "longitude": "78.8867",
            "accuracy": "4"
        },
        {
            "key": "IN/505480",
            "place_name": "Raikal",
            "admin_name1": "Andhra Pradesh",
            "latitude": "18.9",
            "longitude": "78.8167"
        },
        {
            "key": "IN/505498",
            "place_name": "K C Campus (Huzurabad)",
            "admin_name1": "Andhra Pradesh",
            "latitude": "17.448",
            "longitude": "78.5913"
        },
        {
            "key": "IN/505502",
            "place_name": "Veena Vanka",
            "admin_name1": "Andhra Pradesh",
            "latitude": "17.448",
            "longitude": "78.5913"
        },
        {
            "key": "IN/505505",
            "place_name": "Challore",
            "admin_name1": "Andhra Pradesh",
            "latitude": "17.448",
            "longitude": "78.5913"
        },
        {
            "key": "IN/505525",
            "place_name": "Elgaid",
            "admin_name1": "Andhra Pradesh",
            "latitude": "17.448",
            "longitude": "78.5913"
        },
        {
            "key": "IN/505526",
            "place_name": "Endapalli",
            "admin_name1": "Andhra Pradesh",
            "latitude": "17.448",
            "longitude": "78.5913"
        },
        {
            "key": "IN/505527",
            "place_name": "Lower Manair Dam Colony",
            "admin_name1": "Andhra Pradesh",
            "latitude": "17.448",
            "longitude": "78.5913"
        },
        {
            "key": "IN/505530",
            "place_name": "Indurthi",
            "admin_name1": "Andhra Pradesh",
            "latitude": "17.448",
            "longitude": "78.5913"
        },
        {
            "key": "IN/506001",
            "place_name": "Lashkar Bazar",
            "admin_name1": "Andhra Pradesh",
            "latitude": "17.0289",
            "longitude": "78.3025"
        },
        {
            "key": "IN/506002",
            "place_name": "S V N Road",
            "admin_name1": "Andhra Pradesh",
            "latitude": "17.0289",
            "longitude": "78.3025"
        },
        {
            "key": "IN/506003",
            "place_name": "Fatimanagar",
            "admin_name1": "Andhra Pradesh",
            "latitude": "17.0289",
            "longitude": "78.3025"
        },
        {
            "key": "IN/506004",
            "place_name": "R E College (Wgl)",
            "admin_name1": "Andhra Pradesh",
            "latitude": "17.0289",
            "longitude": "78.3025"
        },
        {
            "key": "IN/506006",
            "place_name": "Deshaipet (Wgl)",
            "admin_name1": "Andhra Pradesh",
            "latitude": "17.0289",
            "longitude": "78.3025"
        },
        {
            "key": "IN/506007",
            "place_name": "Kakatiya Medical College",
            "admin_name1": "Andhra Pradesh",
            "latitude": "17.0289",
            "longitude": "78.3025"
        },
        {
            "key": "IN/506008",
            "place_name": "Fort Warangal",
            "admin_name1": "Andhra Pradesh",
            "latitude": "17.0289",
            "longitude": "78.3025"
        },
        {
            "key": "IN/506011",
            "place_name": "Deval Hazar Sutoon",
            "admin_name1": "Andhra Pradesh",
            "latitude": "17.0289",
            "longitude": "78.3025"
        },
        {
            "key": "IN/506012",
            "place_name": "M G Road",
            "admin_name1": "Andhra Pradesh",
            "latitude": "17.0289",
            "longitude": "78.3025"
        },
        {
            "key": "IN/506013",
            "place_name": "Laxmipur (Wgl)",
            "admin_name1": "Andhra Pradesh",
            "latitude": "17.0289",
            "longitude": "78.3025"
        },
        {
            "key": "IN/506015",
            "place_name": "Kakatiya Canal Colony Wgl",
            "admin_name1": "Andhra Pradesh",
            "latitude": "17.0289",
            "longitude": "78.3025"
        },
        {
            "key": "IN/506101",
            "place_name": "Mahabubabad H O",
            "admin_name1": "Andhra Pradesh",
            "latitude": "17.0289",
            "longitude": "78.3025"
        },
        {
            "key": "IN/506142",
            "place_name": "Madikonda",
            "admin_name1": "Andhra Pradesh",
            "latitude": "17.0289",
            "longitude": "78.3025"
        },
        {
            "key": "IN/506144",
            "place_name": "Abadi Ghanpur",
            "admin_name1": "Andhra Pradesh",
            "latitude": "17.0289",
            "longitude": "78.3025"
        },
        {
            "key": "IN/506165",
            "place_name": "Eturnagaram",
            "admin_name1": "Andhra Pradesh",
            "latitude": "17.0289",
            "longitude": "78.3025"
        },
        {
            "key": "IN/506167",
            "place_name": "Jangaon H O",
            "admin_name1": "Andhra Pradesh",
            "latitude": "17.0289",
            "longitude": "78.3025"
        },
        {
            "key": "IN/506224",
            "place_name": "Ladnoor",
            "admin_name1": "Andhra Pradesh",
            "latitude": "17.0289",
            "longitude": "78.3025"
        },
        {
            "key": "IN/506244",
            "place_name": "Quilashapur",
            "admin_name1": "Andhra Pradesh",
            "latitude": "17.0289",
            "longitude": "78.3025"
        },
        {
            "key": "IN/506252",
            "place_name": "Ippaguda",
            "admin_name1": "Andhra Pradesh",
            "latitude": "17.0289",
            "longitude": "78.3025"
        },
        {
            "key": "IN/506301",
            "place_name": "Chagal",
            "admin_name1": "Andhra Pradesh",
            "latitude": "17.0289",
            "longitude": "78.3025"
        },
        {
            "key": "IN/506302",
            "place_name": "Devaruppala",
            "admin_name1": "Andhra Pradesh",
            "latitude": "17.0289",
            "longitude": "78.3025"
        },
        {
            "key": "IN/506303",
            "place_name": "Waddicherla Nawabpet",
            "admin_name1": "Andhra Pradesh",
            "latitude": "17.0289",
            "longitude": "78.3025"
        },
        {
            "key": "IN/506313",
            "place_name": "Wardhannapet",
            "admin_name1": "Andhra Pradesh",
            "latitude": "17.0289",
            "longitude": "78.3025"
        },
        {
            "key": "IN/506314",
            "place_name": "Rai Parthi",
            "admin_name1": "Andhra Pradesh",
            "latitude": "17.0289",
            "longitude": "78.3025"
        },
        {
            "key": "IN/506315",
            "place_name": "Dathala Palli",
            "admin_name1": "Andhra Pradesh",
            "latitude": "17.0289",
            "longitude": "78.3025"
        },
        {
            "key": "IN/506316",
            "place_name": "Zaffargadh",
            "admin_name1": "Andhra Pradesh",
            "latitude": "17.0289",
            "longitude": "78.3025"
        },
        {
            "key": "IN/506318",
            "place_name": "Waddekothapalle",
            "admin_name1": "Andhra Pradesh",
            "latitude": "17.0289",
            "longitude": "78.3025"
        },
        {
            "key": "IN/506329",
            "place_name": "Sangam",
            "admin_name1": "Andhra Pradesh",
            "latitude": "17.0289",
            "longitude": "78.3025",
            "accuracy": "4"
        },
        {
            "key": "IN/506330",
            "place_name": "Dharma Rao Cheruvu",
            "admin_name1": "Andhra Pradesh",
            "latitude": "17.0289",
            "longitude": "78.3025"
        },
        {
            "key": "IN/506352",
            "place_name": "Jangalapalli",
            "admin_name1": "Andhra Pradesh",
            "latitude": "17.0289",
            "longitude": "78.3025"
        },
        {
            "key": "IN/506370",
            "place_name": "Waddepalli",
            "admin_name1": "Andhra Pradesh",
            "latitude": "17.0289",
            "longitude": "78.3025"
        },
        {
            "key": "IN/506371",
            "place_name": "Hasanparthi",
            "admin_name1": "Andhra Pradesh",
            "latitude": "17.0289",
            "longitude": "78.3025"
        },
        {
            "key": "IN/506381",
            "place_name": "Cathedral Compound",
            "admin_name1": "Andhra Pradesh",
            "latitude": "17.0289",
            "longitude": "78.3025"
        },
        {
            "key": "IN/506391",
            "place_name": "Nadikuda",
            "admin_name1": "Andhra Pradesh",
            "latitude": "17.0289",
            "longitude": "78.3025"
        },
        {
            "key": "IN/507002",
            "place_name": "Yellandu Cross Rd (Kmm)",
            "admin_name1": "Andhra Pradesh",
            "latitude": "17.4333",
            "longitude": "80.675"
        },
        {
            "key": "IN/507003",
            "place_name": "Dabala Bazar",
            "admin_name1": "Andhra Pradesh",
            "latitude": "17.4333",
            "longitude": "80.675"
        },
        {
            "key": "IN/507101",
            "place_name": "Adm Bldgs",
            "admin_name1": "Andhra Pradesh",
            "latitude": "17.6",
            "longitude": "80.3333"
        },
        {
            "key": "IN/507106",
            "place_name": "Laxmidevi Palli",
            "admin_name1": "Andhra Pradesh",
            "latitude": "17.6",
            "longitude": "80.3333"
        },
        {
            "key": "IN/507111",
            "place_name": "Kalyanamantapam",
            "admin_name1": "Andhra Pradesh",
            "latitude": "17.6",
            "longitude": "80.3333"
        },
        {
            "key": "IN/507115",
            "place_name": "Nagaram",
            "admin_name1": "Andhra Pradesh",
            "latitude": "17.1842",
            "longitude": "78.3897"
        },
        {
            "key": "IN/507123",
            "place_name": "Yellandu",
            "admin_name1": "Andhra Pradesh",
            "latitude": "17.6",
            "longitude": "80.3333",
            "accuracy": "4"
        },
        {
            "key": "IN/507124",
            "place_name": "Yellaandu Colleries",
            "admin_name1": "Andhra Pradesh",
            "latitude": "17.6",
            "longitude": "80.3333"
        },
        {
            "key": "IN/507152",
            "place_name": "Janampet",
            "admin_name1": "Andhra Pradesh",
            "latitude": "17.6",
            "longitude": "80.3333"
        },
        {
            "key": "IN/507154",
            "place_name": "Campus (Paloncha)",
            "admin_name1": "Andhra Pradesh",
            "latitude": "17.6",
            "longitude": "80.3333"
        },
        {
            "key": "IN/507157",
            "place_name": "Palair",
            "admin_name1": "Andhra Pradesh",
            "latitude": "17.6",
            "longitude": "80.3333"
        },
        {
            "key": "IN/507165",
            "place_name": "Wyra",
            "admin_name1": "Andhra Pradesh",
            "latitude": "17.6",
            "longitude": "80.3333"
        },
        {
            "key": "IN/507167",
            "place_name": "Tallada",
            "admin_name1": "Andhra Pradesh",
            "latitude": "17.6",
            "longitude": "80.3333"
        },
        {
            "key": "IN/507168",
            "place_name": "Enkur",
            "admin_name1": "Andhra Pradesh",
            "latitude": "17.6",
            "longitude": "80.3333"
        },
        {
            "key": "IN/507170",
            "place_name": "Tallam Pahad",
            "admin_name1": "Andhra Pradesh",
            "latitude": "17.6",
            "longitude": "80.3333"
        },
        {
            "key": "IN/507201",
            "place_name": "Yerrupalem",
            "admin_name1": "Andhra Pradesh",
            "latitude": "17.4333",
            "longitude": "80.675"
        },
        {
            "key": "IN/507202",
            "place_name": "Banigandla Pahad",
            "admin_name1": "Andhra Pradesh",
            "latitude": "17.4333",
            "longitude": "80.675"
        },
        {
            "key": "IN/507203",
            "place_name": "Madhira",
            "admin_name1": "Andhra Pradesh",
            "latitude": "17.4333",
            "longitude": "80.675"
        },
        {
            "key": "IN/507206",
            "place_name": "Dendukur",
            "admin_name1": "Andhra Pradesh",
            "latitude": "17.4333",
            "longitude": "80.675"
        },
        {
            "key": "IN/507209",
            "place_name": "Kallur",
            "admin_name1": "Andhra Pradesh",
            "latitude": "17.2",
            "longitude": "80.55"
        },
        {
            "key": "IN/507213",
            "place_name": "Nagula Vancha",
            "admin_name1": "Andhra Pradesh",
            "latitude": "17.4333",
            "longitude": "80.675"
        },
        {
            "key": "IN/507305",
            "place_name": "Tanikella",
            "admin_name1": "Andhra Pradesh",
            "latitude": "17.2667",
            "longitude": "81.0167"
        },
        {
            "key": "IN/507306",
            "place_name": "Dammapeta",
            "admin_name1": "Andhra Pradesh",
            "latitude": "17.2667",
            "longitude": "81.0167",
            "accuracy": "4"
        },
        {
            "key": "IN/508001",
            "place_name": "Old Abadi",
            "admin_name1": "Andhra Pradesh",
            "latitude": "17.1084",
            "longitude": "79.1517"
        },
        {
            "key": "IN/508105",
            "place_name": "Raghunathapuram",
            "admin_name1": "Andhra Pradesh",
            "latitude": "17.4419",
            "longitude": "78.3883"
        },
        {
            "key": "IN/508111",
            "place_name": "Chada",
            "admin_name1": "Andhra Pradesh",
            "latitude": "17.4419",
            "longitude": "78.3883"
        },
        {
            "key": "IN/508112",
            "place_name": "Vali Gonda",
            "admin_name1": "Andhra Pradesh",
            "latitude": "17.4419",
            "longitude": "78.3883"
        },
        {
            "key": "IN/508115",
            "place_name": "Kacharam",
            "admin_name1": "Andhra Pradesh",
            "latitude": "17.4419",
            "longitude": "78.3883"
        },
        {
            "key": "IN/508116",
            "place_name": "Madhapur",
            "admin_name1": "Andhra Pradesh",
            "latitude": "17.4419",
            "longitude": "78.3883",
            "accuracy": "4"
        },
        {
            "key": "IN/508126",
            "place_name": "Hazipur",
            "admin_name1": "Andhra Pradesh",
            "latitude": "17.4419",
            "longitude": "78.3883"
        },
        {
            "key": "IN/508202",
            "place_name": "Hill Colony",
            "admin_name1": "Andhra Pradesh",
            "latitude": "17.1667",
            "longitude": "79.4333"
        },
        {
            "key": "IN/508206",
            "place_name": "Balaji Nagar",
            "admin_name1": "Andhra Pradesh",
            "latitude": "17.1667",
            "longitude": "79.4333"
        },
        {
            "key": "IN/508207",
            "place_name": "A C Palli",
            "admin_name1": "Andhra Pradesh",
            "latitude": "17.1667",
            "longitude": "79.4333"
        },
        {
            "key": "IN/508211",
            "place_name": "Nakrekal",
            "admin_name1": "Andhra Pradesh",
            "latitude": "17.1667",
            "longitude": "79.4333",
            "accuracy": "4"
        },
        {
            "key": "IN/508213",
            "place_name": "Bank Street",
            "admin_name1": "Andhra Pradesh",
            "latitude": "17.1667",
            "longitude": "79.4333"
        },
        {
            "key": "IN/508214",
            "place_name": "Nacharam Industrial Estat",
            "admin_name1": "Andhra Pradesh",
            "latitude": "17.1667",
            "longitude": "79.4333"
        },
        {
            "key": "IN/508234",
            "place_name": "Nadigudem",
            "admin_name1": "Andhra Pradesh",
            "latitude": "17.1667",
            "longitude": "79.4333"
        },
        {
            "key": "IN/508248",
            "place_name": "Devar Konda",
            "admin_name1": "Andhra Pradesh",
            "latitude": "17.1667",
            "longitude": "79.4333"
        },
        {
            "key": "IN/508278",
            "place_name": "Nadavanore",
            "admin_name1": "Andhra Pradesh",
            "latitude": "17.1667",
            "longitude": "79.4333"
        },
        {
            "key": "IN/508286",
            "place_name": "Wangopalli",
            "admin_name1": "Andhra Pradesh",
            "latitude": "17.1667",
            "longitude": "79.4333"
        },
        {
            "key": "IN/508288",
            "place_name": "Inkriyala",
            "admin_name1": "Andhra Pradesh",
            "latitude": "17.1667",
            "longitude": "79.4333"
        },
        {
            "key": "IN/508296",
            "place_name": "Raghavapuram",
            "admin_name1": "Andhra Pradesh",
            "latitude": "17.1667",
            "longitude": "79.4333"
        },
        {
            "key": "IN/508332",
            "place_name": "Palakaveedu",
            "admin_name1": "Andhra Pradesh",
            "latitude": "16.7167",
            "longitude": "79.6333"
        },
        {
            "key": "IN/508346",
            "place_name": "Indloor",
            "admin_name1": "Andhra Pradesh",
            "latitude": "16.7167",
            "longitude": "79.6333"
        },
        {
            "key": "IN/508347",
            "place_name": "Kalmal Cheruvu",
            "admin_name1": "Andhra Pradesh",
            "latitude": "16.7167",
            "longitude": "79.6333"
        },
        {
            "key": "IN/508350",
            "place_name": "Chalakurthi",
            "admin_name1": "Andhra Pradesh",
            "latitude": "16.7167",
            "longitude": "79.6333"
        },
        {
            "key": "IN/508353",
            "place_name": "Nallabanda Gudem",
            "admin_name1": "Andhra Pradesh",
            "latitude": "16.7167",
            "longitude": "79.6333"
        },
        {
            "key": "IN/508355",
            "place_name": "Janpahad",
            "admin_name1": "Andhra Pradesh",
            "latitude": "16.7167",
            "longitude": "79.6333"
        },
        {
            "key": "IN/508367",
            "place_name": "Adsarla Pally",
            "admin_name1": "Andhra Pradesh",
            "latitude": "16.7167",
            "longitude": "79.6333"
        },
        {
            "key": "IN/508373",
            "place_name": "Nampalli",
            "admin_name1": "Andhra Pradesh",
            "latitude": "16.7167",
            "longitude": "79.6333"
        },
        {
            "key": "IN/508374",
            "place_name": "Madugulapalli",
            "admin_name1": "Andhra Pradesh",
            "latitude": "16.7167",
            "longitude": "79.6333"
        },
        {
            "key": "IN/508375",
            "place_name": "Damarcherla",
            "admin_name1": "Andhra Pradesh",
            "latitude": "16.7167",
            "longitude": "79.6333",
            "accuracy": "4"
        },
        {
            "key": "IN/509001",
            "place_name": "Pallaburju",
            "admin_name1": "Andhra Pradesh",
            "latitude": "17.044",
            "longitude": "78.9628"
        },
        {
            "key": "IN/509002",
            "place_name": "Industrial Estate Mbn",
            "admin_name1": "Andhra Pradesh",
            "latitude": "17.044",
            "longitude": "78.9628"
        },
        {
            "key": "IN/509103",
            "place_name": "Wanaparthy H O",
            "admin_name1": "Andhra Pradesh",
            "latitude": "16.7831",
            "longitude": "78.5394"
        },
        {
            "key": "IN/509110",
            "place_name": "Madanapuram",
            "admin_name1": "Andhra Pradesh",
            "latitude": "17.6997",
            "longitude": "78.5592"
        },
        {
            "key": "IN/509113",
            "place_name": "Varna",
            "admin_name1": "Andhra Pradesh",
            "latitude": "17.6997",
            "longitude": "78.5592"
        },
        {
            "key": "IN/509115",
            "place_name": "Chandapur",
            "admin_name1": "Andhra Pradesh",
            "latitude": "17.6669",
            "longitude": "78.1972",
            "accuracy": "4"
        },
        {
            "key": "IN/509116",
            "place_name": "Rajapet",
            "admin_name1": "Andhra Pradesh",
            "latitude": "17.7325",
            "longitude": "78.9211",
            "accuracy": "4"
        },
        {
            "key": "IN/509117",
            "place_name": "Kalwakole",
            "admin_name1": "Andhra Pradesh",
            "latitude": "17.6997",
            "longitude": "78.5592"
        },
        {
            "key": "IN/509125",
            "place_name": "Gadwal H O",
            "admin_name1": "Andhra Pradesh",
            "latitude": "14.95",
            "longitude": "78.5"
        },
        {
            "key": "IN/509126",
            "place_name": "Rajoli",
            "admin_name1": "Andhra Pradesh",
            "latitude": "14.95",
            "longitude": "78.5",
            "accuracy": "4"
        },
        {
            "key": "IN/509127",
            "place_name": "Leeja",
            "admin_name1": "Andhra Pradesh",
            "latitude": "14.95",
            "longitude": "78.5"
        },
        {
            "key": "IN/509129",
            "place_name": "Macherla (M)",
            "admin_name1": "Andhra Pradesh",
            "latitude": "14.95",
            "longitude": "78.5"
        },
        {
            "key": "IN/509135",
            "place_name": "Uppal Camp",
            "admin_name1": "Andhra Pradesh",
            "latitude": "16.7831",
            "longitude": "78.5394"
        },
        {
            "key": "IN/509137",
            "place_name": "Utnoor",
            "admin_name1": "Andhra Pradesh",
            "latitude": "16.7831",
            "longitude": "78.5394"
        },
        {
            "key": "IN/509141",
            "place_name": "Padu",
            "admin_name1": "Andhra Pradesh",
            "latitude": "16.7831",
            "longitude": "78.5394"
        },
        {
            "key": "IN/509143",
            "place_name": "Yelkur",
            "admin_name1": "Andhra Pradesh",
            "latitude": "16.7831",
            "longitude": "78.5394"
        },
        {
            "key": "IN/509144",
            "place_name": "Waddepalli",
            "admin_name1": "Andhra Pradesh",
            "latitude": "16.7831",
            "longitude": "78.5394"
        },
        {
            "key": "IN/509147",
            "place_name": "Palavoi",
            "admin_name1": "Andhra Pradesh",
            "latitude": "16.7831",
            "longitude": "78.5394"
        },
        {
            "key": "IN/509151",
            "place_name": "Vallur",
            "admin_name1": "Andhra Pradesh",
            "latitude": "16.7831",
            "longitude": "78.5394"
        },
        {
            "key": "IN/509153",
            "place_name": "Undevally",
            "admin_name1": "Andhra Pradesh",
            "latitude": "16.7831",
            "longitude": "78.5394"
        },
        {
            "key": "IN/509155",
            "place_name": "Taksila",
            "admin_name1": "Andhra Pradesh",
            "latitude": "16.7831",
            "longitude": "78.5394"
        },
        {
            "key": "IN/509171",
            "place_name": "Tangal",
            "admin_name1": "Andhra Pradesh",
            "latitude": "16.7831",
            "longitude": "78.5394"
        },
        {
            "key": "IN/509202",
            "place_name": "Bala Nagar",
            "admin_name1": "Andhra Pradesh",
            "latitude": "16.65",
            "longitude": "77.6667"
        },
        {
            "key": "IN/509204",
            "place_name": "Devara Kadra",
            "admin_name1": "Andhra Pradesh",
            "latitude": "16.65",
            "longitude": "77.6667"
        },
        {
            "key": "IN/509205",
            "place_name": "Dhanwada",
            "admin_name1": "Andhra Pradesh",
            "latitude": "16.65",
            "longitude": "77.6667",
            "accuracy": "4"
        },
        {
            "key": "IN/509209",
            "place_name": "Nagar Kurnool",
            "admin_name1": "Andhra Pradesh",
            "latitude": "16.65",
            "longitude": "77.6667"
        },
        {
            "key": "IN/509211",
            "place_name": "Jajapur",
            "admin_name1": "Andhra Pradesh",
            "latitude": "17.2067",
            "longitude": "78.34"
        },
        {
            "key": "IN/509215",
            "place_name": "Palem",
            "admin_name1": "Andhra Pradesh",
            "latitude": "17.2067",
            "longitude": "78.34"
        },
        {
            "key": "IN/509218",
            "place_name": "Nanajpur",
            "admin_name1": "Andhra Pradesh",
            "latitude": "17.2292",
            "longitude": "78.2903",
            "accuracy": "4"
        },
        {
            "key": "IN/509226",
            "place_name": "Indrakal",
            "admin_name1": "Andhra Pradesh",
            "latitude": "17.5283",
            "longitude": "79.7533"
        },
        {
            "key": "IN/509227",
            "place_name": "Tadia Pally",
            "admin_name1": "Andhra Pradesh",
            "latitude": "17.5283",
            "longitude": "79.7533"
        },
        {
            "key": "IN/509242",
            "place_name": "Rajapur",
            "admin_name1": "Andhra Pradesh",
            "latitude": "19.05",
            "longitude": "84.6667",
            "accuracy": "4"
        },
        {
            "key": "IN/509307",
            "place_name": "Edganpalli",
            "admin_name1": "Andhra Pradesh",
            "latitude": "16.65",
            "longitude": "77.5167"
        },
        {
            "key": "IN/509311",
            "place_name": "Utkur",
            "admin_name1": "Andhra Pradesh",
            "latitude": "16.65",
            "longitude": "77.5167",
            "accuracy": "4"
        },
        {
            "key": "IN/509323",
            "place_name": "Gagan Pahad",
            "admin_name1": "Andhra Pradesh",
            "latitude": "16.65",
            "longitude": "77.5167"
        },
        {
            "key": "IN/509324",
            "place_name": "Kalwa Kurthy",
            "admin_name1": "Andhra Pradesh",
            "latitude": "16.65",
            "longitude": "77.5167"
        },
        {
            "key": "IN/509325",
            "place_name": "Palmakole",
            "admin_name1": "Andhra Pradesh",
            "latitude": "16.65",
            "longitude": "77.5167"
        },
        {
            "key": "IN/509327",
            "place_name": "Madgul",
            "admin_name1": "Andhra Pradesh",
            "latitude": "16.65",
            "longitude": "77.5167"
        },
        {
            "key": "IN/509328",
            "place_name": "Tala Konda Palli",
            "admin_name1": "Andhra Pradesh",
            "latitude": "16.65",
            "longitude": "77.5167"
        },
        {
            "key": "IN/509334",
            "place_name": "Hunwada",
            "admin_name1": "Andhra Pradesh",
            "latitude": "16.65",
            "longitude": "77.5167"
        },
        {
            "key": "IN/509343",
            "place_name": "A Raichur",
            "admin_name1": "Andhra Pradesh",
            "latitude": "16.65",
            "longitude": "77.5167"
        },
        {
            "key": "IN/509347",
            "place_name": "Ibrahimbad",
            "admin_name1": "Andhra Pradesh",
            "latitude": "16.65",
            "longitude": "77.5167"
        },
        {
            "key": "IN/509349",
            "place_name": "Vangoor",
            "admin_name1": "Andhra Pradesh",
            "latitude": "16.65",
            "longitude": "77.5167"
        },
        {
            "key": "IN/509350",
            "place_name": "Husnabad",
            "admin_name1": "Andhra Pradesh",
            "latitude": "17.0667",
            "longitude": "77.65"
        },
        {
            "key": "IN/509353",
            "place_name": "Jaklair",
            "admin_name1": "Andhra Pradesh",
            "latitude": "16.65",
            "longitude": "77.5167"
        },
        {
            "key": "IN/509358",
            "place_name": "Kadthal",
            "admin_name1": "Andhra Pradesh",
            "latitude": "16.65",
            "longitude": "77.5167"
        },
        {
            "key": "IN/509375",
            "place_name": "Achampet (Wanaparthy)",
            "admin_name1": "Andhra Pradesh",
            "latitude": "16.65",
            "longitude": "77.5167"
        },
        {
            "key": "IN/509376",
            "place_name": "Uppnunthala",
            "admin_name1": "Andhra Pradesh",
            "latitude": "16.65",
            "longitude": "77.5167"
        },
        {
            "key": "IN/509383",
            "place_name": "Kadu Kuntla",
            "admin_name1": "Andhra Pradesh",
            "latitude": "16.65",
            "longitude": "77.5167"
        },
        {
            "key": "IN/509401",
            "place_name": "Lingal",
            "admin_name1": "Andhra Pradesh",
            "latitude": "16.2833",
            "longitude": "78.5167",
            "accuracy": "4"
        },
        {
            "key": "IN/509407",
            "place_name": "Damar Gidda",
            "admin_name1": "Andhra Pradesh",
            "latitude": "16.2833",
            "longitude": "78.5167"
        },
        {
            "key": "IN/509409",
            "place_name": "Lalkota",
            "admin_name1": "Andhra Pradesh",
            "latitude": "16.2833",
            "longitude": "78.5167"
        },
        {
            "key": "IN/509413",
            "place_name": "Padkal",
            "admin_name1": "Andhra Pradesh",
            "latitude": "16.2833",
            "longitude": "78.5167"
        },
        {
            "key": "IN/509416",
            "place_name": "V Markal",
            "admin_name1": "Andhra Pradesh",
            "latitude": "16.2833",
            "longitude": "78.5167"
        },
        {
            "key": "IN/509431",
            "place_name": "Yellikal",
            "admin_name1": "Andhra Pradesh",
            "latitude": "16.2833",
            "longitude": "78.5167"
        },
        {
            "key": "IN/515001",
            "place_name": "S B Mahaveer Road",
            "admin_name1": "Andhra Pradesh",
            "latitude": "14.3447",
            "longitude": "77.8319"
        },
        {
            "key": "IN/515005",
            "place_name": "Old Mla Quarters (Hyd)",
            "admin_name1": "Andhra Pradesh",
            "latitude": "14.3447",
            "longitude": "77.8319"
        },
        {
            "key": "IN/515201",
            "place_name": "Hindupur H O",
            "admin_name1": "Andhra Pradesh",
            "latitude": "14.3447",
            "longitude": "77.8319"
        },
        {
            "key": "IN/515202",
            "place_name": "Hindupur Extension",
            "admin_name1": "Andhra Pradesh",
            "latitude": "14.3447",
            "longitude": "77.8319"
        },
        {
            "key": "IN/515212",
            "place_name": "Hindupur Sevamandir",
            "admin_name1": "Andhra Pradesh",
            "latitude": "14.3447",
            "longitude": "77.8319"
        },
        {
            "key": "IN/515232",
            "place_name": "Vanavolu",
            "admin_name1": "Andhra Pradesh",
            "latitude": "14.3447",
            "longitude": "77.8319"
        },
        {
            "key": "IN/515282",
            "place_name": "Halakur",
            "admin_name1": "Andhra Pradesh",
            "latitude": "14.3447",
            "longitude": "77.8319"
        },
        {
            "key": "IN/515286",
            "place_name": "Hemavathi",
            "admin_name1": "Andhra Pradesh",
            "latitude": "14.3447",
            "longitude": "77.8319"
        },
        {
            "key": "IN/515301",
            "place_name": "Madakasira",
            "admin_name1": "Andhra Pradesh",
            "latitude": "13.9369",
            "longitude": "77.2694",
            "accuracy": "4"
        },
        {
            "key": "IN/515303",
            "place_name": "Kallu Marri",
            "admin_name1": "Andhra Pradesh",
            "latitude": "13.9369",
            "longitude": "77.2694"
        },
        {
            "key": "IN/515306",
            "place_name": "Basavanahalli",
            "admin_name1": "Andhra Pradesh",
            "latitude": "13.9369",
            "longitude": "77.2694"
        },
        {
            "key": "IN/515311",
            "place_name": "Agali",
            "admin_name1": "Andhra Pradesh",
            "latitude": "13.8762",
            "longitude": "77.4354"
        },
        {
            "key": "IN/515331",
            "place_name": "Lepakshi",
            "admin_name1": "Andhra Pradesh",
            "latitude": "13.8156",
            "longitude": "77.6014",
            "accuracy": "4"
        },
        {
            "key": "IN/515332",
            "place_name": "Dema Kethe Palli",
            "admin_name1": "Andhra Pradesh",
            "latitude": "13.8156",
            "longitude": "77.6014"
        },
        {
            "key": "IN/515404",
            "place_name": "Nagasamudram",
            "admin_name1": "Andhra Pradesh",
            "latitude": "14.3",
            "longitude": "77.65",
            "accuracy": "4"
        },
        {
            "key": "IN/515408",
            "place_name": "Yadiki",
            "admin_name1": "Andhra Pradesh",
            "latitude": "15.05",
            "longitude": "77.8833",
            "accuracy": "4"
        },
        {
            "key": "IN/515411",
            "place_name": "Tadapatri H O",
            "admin_name1": "Andhra Pradesh",
            "latitude": "14.6833",
            "longitude": "77.8722"
        },
        {
            "key": "IN/515412",
            "place_name": "Yerrangunta Palli",
            "admin_name1": "Andhra Pradesh",
            "latitude": "14.6833",
            "longitude": "77.8722"
        },
        {
            "key": "IN/515419",
            "place_name": "Challavari Palli",
            "admin_name1": "Andhra Pradesh",
            "latitude": "14.6833",
            "longitude": "77.8722"
        },
        {
            "key": "IN/515456",
            "place_name": "Nagaruru",
            "admin_name1": "Andhra Pradesh",
            "latitude": "14.6833",
            "longitude": "77.8722"
        },
        {
            "key": "IN/515458",
            "place_name": "Chandana",
            "admin_name1": "Andhra Pradesh",
            "latitude": "14.6833",
            "longitude": "77.8722"
        },
        {
            "key": "IN/515465",
            "place_name": "Yellanur",
            "admin_name1": "Andhra Pradesh",
            "latitude": "14.7",
            "longitude": "78.0833",
            "accuracy": "4"
        },
        {
            "key": "IN/515551",
            "place_name": "Nallacheruvu",
            "admin_name1": "Andhra Pradesh",
            "latitude": "14.0944",
            "longitude": "78.2056"
        },
        {
            "key": "IN/515561",
            "place_name": "Obuladevarachervu",
            "admin_name1": "Andhra Pradesh",
            "latitude": "14.0944",
            "longitude": "78.2056"
        },
        {
            "key": "IN/515571",
            "place_name": "Tanakallu",
            "admin_name1": "Andhra Pradesh",
            "latitude": "13.9167",
            "longitude": "78.1833",
            "accuracy": "4"
        },
        {
            "key": "IN/515581",
            "place_name": "Talupula",
            "admin_name1": "Andhra Pradesh",
            "latitude": "14.25",
            "longitude": "78.2667",
            "accuracy": "4"
        },
        {
            "key": "IN/515591",
            "place_name": "Kadiri",
            "admin_name1": "Andhra Pradesh",
            "latitude": "14.1167",
            "longitude": "78.1667",
            "accuracy": "4"
        },
        {
            "key": "IN/515631",
            "place_name": "Tadi Marri",
            "admin_name1": "Andhra Pradesh",
            "latitude": "14.3447",
            "longitude": "77.8319"
        },
        {
            "key": "IN/515661",
            "place_name": "Bathala Palle",
            "admin_name1": "Andhra Pradesh",
            "latitude": "14.3447",
            "longitude": "77.8319"
        },
        {
            "key": "IN/515701",
            "place_name": "Samudram",
            "admin_name1": "Andhra Pradesh",
            "latitude": "14.3447",
            "longitude": "77.8319"
        },
        {
            "key": "IN/515712",
            "place_name": "Jalli Palli",
            "admin_name1": "Andhra Pradesh",
            "latitude": "14.3447",
            "longitude": "77.8319"
        },
        {
            "key": "IN/515761",
            "place_name": "Kalyan Durg",
            "admin_name1": "Andhra Pradesh",
            "latitude": "14.3447",
            "longitude": "77.8319"
        },
        {
            "key": "IN/515762",
            "place_name": "Pala Voyi",
            "admin_name1": "Andhra Pradesh",
            "latitude": "14.3447",
            "longitude": "77.8319"
        },
        {
            "key": "IN/515774",
            "place_name": "Kalluru R S",
            "admin_name1": "Andhra Pradesh",
            "latitude": "14.3447",
            "longitude": "77.8319"
        },
        {
            "key": "IN/515801",
            "place_name": "Rajendranagar",
            "admin_name1": "Andhra Pradesh",
            "latitude": "15.0167",
            "longitude": "77.3833"
        },
        {
            "key": "IN/515803",
            "place_name": "Old Guntakal",
            "admin_name1": "Andhra Pradesh",
            "latitude": "15.0167",
            "longitude": "77.3833"
        },
        {
            "key": "IN/515812",
            "place_name": "Urvakonda",
            "admin_name1": "Andhra Pradesh",
            "latitude": "15.0167",
            "longitude": "77.3833"
        },
        {
            "key": "IN/515813",
            "place_name": "Chabala",
            "admin_name1": "Andhra Pradesh",
            "latitude": "15.0167",
            "longitude": "77.3833"
        },
        {
            "key": "IN/515832",
            "place_name": "Vajrakarur",
            "admin_name1": "Andhra Pradesh",
            "latitude": "15.0167",
            "longitude": "77.3833",
            "accuracy": "4"
        },
        {
            "key": "IN/515834",
            "place_name": "Ragula Padu",
            "admin_name1": "Andhra Pradesh",
            "latitude": "15.0167",
            "longitude": "77.3833"
        },
        {
            "key": "IN/515844",
            "place_name": "Gadde Kallu",
            "admin_name1": "Andhra Pradesh",
            "latitude": "15.0167",
            "longitude": "77.3833"
        },
        {
            "key": "IN/515862",
            "place_name": "B T Project",
            "admin_name1": "Andhra Pradesh",
            "latitude": "15.0167",
            "longitude": "77.3833"
        },
        {
            "key": "IN/515867",
            "place_name": "Udegolam",
            "admin_name1": "Andhra Pradesh",
            "latitude": "15.0167",
            "longitude": "77.3833"
        },
        {
            "key": "IN/515872",
            "place_name": "Harial",
            "admin_name1": "Andhra Pradesh",
            "latitude": "15.0167",
            "longitude": "77.3833"
        },
        {
            "key": "IN/516001",
            "place_name": "Cdp Mochampet",
            "admin_name1": "Andhra Pradesh",
            "latitude": "14.5917",
            "longitude": "78.9389"
        },
        {
            "key": "IN/516004",
            "place_name": "Yerra Mukkapalli Cuddapah",
            "admin_name1": "Andhra Pradesh",
            "latitude": "14.5917",
            "longitude": "78.9389"
        },
        {
            "key": "IN/516005",
            "place_name": "Machupalli (Cuddapah)",
            "admin_name1": "Andhra Pradesh",
            "latitude": "14.5917",
            "longitude": "78.9389"
        },
        {
            "key": "IN/516108",
            "place_name": "Obulavari Palle",
            "admin_name1": "Andhra Pradesh",
            "latitude": "14.7917",
            "longitude": "79.8917"
        },
        {
            "key": "IN/516113",
            "place_name": "T Kamma Palle",
            "admin_name1": "Andhra Pradesh",
            "latitude": "14.2333",
            "longitude": "79.7333"
        },
        {
            "key": "IN/516114",
            "place_name": "Yerraguntla Kota",
            "admin_name1": "Andhra Pradesh",
            "latitude": "14.2333",
            "longitude": "79.7333"
        },
        {
            "key": "IN/516115",
            "place_name": "Rajampet R S",
            "admin_name1": "Andhra Pradesh",
            "latitude": "14.2333",
            "longitude": "79.7333"
        },
        {
            "key": "IN/516118",
            "place_name": "Palle",
            "admin_name1": "Andhra Pradesh",
            "latitude": "14.2333",
            "longitude": "79.7333"
        },
        {
            "key": "IN/516119",
            "place_name": "Utukuru",
            "admin_name1": "Andhra Pradesh",
            "latitude": "14.2333",
            "longitude": "79.7333",
            "accuracy": "4"
        },
        {
            "key": "IN/516120",
            "place_name": "Galivari Palle",
            "admin_name1": "Andhra Pradesh",
            "latitude": "14.7917",
            "longitude": "79.8917"
        },
        {
            "key": "IN/516130",
            "place_name": "T Sundupalle",
            "admin_name1": "Andhra Pradesh",
            "latitude": "14.7917",
            "longitude": "79.8917"
        },
        {
            "key": "IN/516133",
            "place_name": "Madithadu",
            "admin_name1": "Andhra Pradesh",
            "latitude": "14.7917",
            "longitude": "79.8917"
        },
        {
            "key": "IN/516134",
            "place_name": "Tallapaka",
            "admin_name1": "Andhra Pradesh",
            "latitude": "14.7917",
            "longitude": "79.8917"
        },
        {
            "key": "IN/516151",
            "place_name": "Tangutur",
            "admin_name1": "Andhra Pradesh",
            "latitude": "15.35",
            "longitude": "80.05",
            "accuracy": "4"
        },
        {
            "key": "IN/516173",
            "place_name": "Onipenta",
            "admin_name1": "Andhra Pradesh",
            "latitude": "14.7917",
            "longitude": "79.8917"
        },
        {
            "key": "IN/516215",
            "place_name": "Sambe Palli",
            "admin_name1": "Andhra Pradesh",
            "latitude": "14.3917",
            "longitude": "78.775"
        },
        {
            "key": "IN/516217",
            "place_name": "Kalas Pad",
            "admin_name1": "Andhra Pradesh",
            "latitude": "14.3917",
            "longitude": "78.775"
        },
        {
            "key": "IN/516227",
            "place_name": "Badvel",
            "admin_name1": "Andhra Pradesh",
            "latitude": "14.75",
            "longitude": "79.05",
            "accuracy": "4"
        },
        {
            "key": "IN/516247",
            "place_name": "Madhavaram (C)",
            "admin_name1": "Andhra Pradesh",
            "latitude": "14.3917",
            "longitude": "78.775"
        },
        {
            "key": "IN/516257",
            "place_name": "Lakki Reddi Palle",
            "admin_name1": "Andhra Pradesh",
            "latitude": "14.3917",
            "longitude": "78.775"
        },
        {
            "key": "IN/516259",
            "place_name": "Palle",
            "admin_name1": "Andhra Pradesh",
            "latitude": "14.3917",
            "longitude": "78.775"
        },
        {
            "key": "IN/516260",
            "place_name": "Chakrayapeta",
            "admin_name1": "Andhra Pradesh",
            "latitude": "14.0333",
            "longitude": "78.5"
        },
        {
            "key": "IN/516267",
            "place_name": "Galivedu",
            "admin_name1": "Andhra Pradesh",
            "latitude": "14.0333",
            "longitude": "78.5",
            "accuracy": "4"
        },
        {
            "key": "IN/516268",
            "place_name": "Veera Balle",
            "admin_name1": "Andhra Pradesh",
            "latitude": "14.0333",
            "longitude": "78.5"
        },
        {
            "key": "IN/516271",
            "place_name": "Eguvagottiveedu",
            "admin_name1": "Andhra Pradesh",
            "latitude": "14.3917",
            "longitude": "78.775"
        },
        {
            "key": "IN/516290",
            "place_name": "T Sadipiralla",
            "admin_name1": "Andhra Pradesh",
            "latitude": "14.3917",
            "longitude": "78.775"
        },
        {
            "key": "IN/516293",
            "place_name": "Valluru",
            "admin_name1": "Andhra Pradesh",
            "latitude": "14.3917",
            "longitude": "78.775"
        },
        {
            "key": "IN/516309",
            "place_name": "Yerraguntla West",
            "admin_name1": "Andhra Pradesh",
            "latitude": "14.4833",
            "longitude": "78.1333"
        },
        {
            "key": "IN/516311",
            "place_name": "Urutur",
            "admin_name1": "Andhra Pradesh",
            "latitude": "14.4833",
            "longitude": "78.1333"
        },
        {
            "key": "IN/516321",
            "place_name": "Veerappanayuni Palle",
            "admin_name1": "Andhra Pradesh",
            "latitude": "14.4833",
            "longitude": "78.1333"
        },
        {
            "key": "IN/516329",
            "place_name": "Vaim Palle",
            "admin_name1": "Andhra Pradesh",
            "latitude": "14.4833",
            "longitude": "78.1333"
        },
        {
            "key": "IN/516330",
            "place_name": "Veeranna Cattupalle",
            "admin_name1": "Andhra Pradesh",
            "latitude": "14.4833",
            "longitude": "78.1333"
        },
        {
            "key": "IN/516350",
            "place_name": "Talla Palle",
            "admin_name1": "Andhra Pradesh",
            "latitude": "14.4833",
            "longitude": "78.1333"
        },
        {
            "key": "IN/516356",
            "place_name": "Nakkala Dinne",
            "admin_name1": "Andhra Pradesh",
            "latitude": "14.4833",
            "longitude": "78.1333"
        },
        {
            "key": "IN/516361",
            "place_name": "Holmespet",
            "admin_name1": "Andhra Pradesh",
            "latitude": "14.4833",
            "longitude": "78.1333"
        },
        {
            "key": "IN/516365",
            "place_name": "Upparapalle",
            "admin_name1": "Andhra Pradesh",
            "latitude": "14.4833",
            "longitude": "78.1333"
        },
        {
            "key": "IN/516366",
            "place_name": "Pallavolu",
            "admin_name1": "Andhra Pradesh",
            "latitude": "14.4833",
            "longitude": "78.1333"
        },
        {
            "key": "IN/516396",
            "place_name": "Lingala",
            "admin_name1": "Andhra Pradesh",
            "latitude": "14.4833",
            "longitude": "78.1333",
            "accuracy": "4"
        },
        {
            "key": "IN/516421",
            "place_name": "Agadur",
            "admin_name1": "Andhra Pradesh",
            "latitude": "14.7",
            "longitude": "78.1667"
        },
        {
            "key": "IN/516432",
            "place_name": "Vaddi Rala",
            "admin_name1": "Andhra Pradesh",
            "latitude": "14.7",
            "longitude": "78.1667"
        },
        {
            "key": "IN/516434",
            "place_name": "Jammalamudugu North",
            "admin_name1": "Andhra Pradesh",
            "latitude": "14.7",
            "longitude": "78.1667"
        },
        {
            "key": "IN/516437",
            "place_name": "S Uppala Padu",
            "admin_name1": "Andhra Pradesh",
            "latitude": "14.7",
            "longitude": "78.1667"
        },
        {
            "key": "IN/516441",
            "place_name": "Devagudi",
            "admin_name1": "Andhra Pradesh",
            "latitude": "14.7",
            "longitude": "78.1667"
        },
        {
            "key": "IN/516464",
            "place_name": "Lavanur",
            "admin_name1": "Andhra Pradesh",
            "latitude": "14.7",
            "longitude": "78.1667",
            "accuracy": "4"
        },
        {
            "key": "IN/516474",
            "place_name": "Talla Proddatur",
            "admin_name1": "Andhra Pradesh",
            "latitude": "14.7",
            "longitude": "78.1667"
        },
        {
            "key": "IN/516484",
            "place_name": "Balapanur",
            "admin_name1": "Andhra Pradesh",
            "latitude": "14.7",
            "longitude": "78.1667"
        },
        {
            "key": "IN/517001",
            "place_name": "C T R Bazar",
            "admin_name1": "Andhra Pradesh",
            "latitude": "13.8183",
            "longitude": "78.91"
        },
        {
            "key": "IN/517002",
            "place_name": "Kajoor",
            "admin_name1": "Andhra Pradesh",
            "latitude": "13.8183",
            "longitude": "78.91"
        },
        {
            "key": "IN/517101",
            "place_name": "Chandragiri H O",
            "admin_name1": "Andhra Pradesh",
            "latitude": "13.5833",
            "longitude": "79.0889"
        },
        {
            "key": "IN/517112",
            "place_name": "Pakala",
            "admin_name1": "Andhra Pradesh",
            "latitude": "13.4667",
            "longitude": "79.1167",
            "accuracy": "4"
        },
        {
            "key": "IN/517113",
            "place_name": "Kallur",
            "admin_name1": "Andhra Pradesh",
            "latitude": "13.5667",
            "longitude": "79",
            "accuracy": "4"
        },
        {
            "key": "IN/517115",
            "place_name": "Maddinavani Palle",
            "admin_name1": "Andhra Pradesh",
            "latitude": "13.5167",
            "longitude": "79.0583"
        },
        {
            "key": "IN/517130",
            "place_name": "Iral",
            "admin_name1": "Andhra Pradesh",
            "latitude": "13.5833",
            "longitude": "79.0889"
        },
        {
            "key": "IN/517135",
            "place_name": "Pallur",
            "admin_name1": "Andhra Pradesh",
            "latitude": "13.5833",
            "longitude": "79.0889"
        },
        {
            "key": "IN/517139",
            "place_name": "Sami Reddi Palle",
            "admin_name1": "Andhra Pradesh",
            "latitude": "13.5833",
            "longitude": "79.0889"
        },
        {
            "key": "IN/517141",
            "place_name": "Gajula Palli",
            "admin_name1": "Andhra Pradesh",
            "latitude": "13.5833",
            "longitude": "79.0889"
        },
        {
            "key": "IN/517148",
            "place_name": "Iiavaripalle",
            "admin_name1": "Andhra Pradesh",
            "latitude": "13.5833",
            "longitude": "79.0889"
        },
        {
            "key": "IN/517151",
            "place_name": "Kalva Gunta",
            "admin_name1": "Andhra Pradesh",
            "latitude": "13.5833",
            "longitude": "79.0889"
        },
        {
            "key": "IN/517152",
            "place_name": "Damal Cheruvu",
            "admin_name1": "Andhra Pradesh",
            "latitude": "13.5833",
            "longitude": "79.0889"
        },
        {
            "key": "IN/517160",
            "place_name": "Odde Palle",
            "admin_name1": "Andhra Pradesh",
            "latitude": "13.5833",
            "longitude": "79.0889"
        },
        {
            "key": "IN/517163",
            "place_name": "Palakur",
            "admin_name1": "Andhra Pradesh",
            "latitude": "13.5833",
            "longitude": "79.0889"
        },
        {
            "key": "IN/517165",
            "place_name": "Yellampalle Santha Gate",
            "admin_name1": "Andhra Pradesh",
            "latitude": "13.5833",
            "longitude": "79.0889"
        },
        {
            "key": "IN/517194",
            "place_name": "Bakarapet",
            "admin_name1": "Andhra Pradesh",
            "latitude": "13.7167",
            "longitude": "79.15"
        },
        {
            "key": "IN/517196",
            "place_name": "Palle",
            "admin_name1": "Andhra Pradesh",
            "latitude": "13.7167",
            "longitude": "79.15"
        },
        {
            "key": "IN/517197",
            "place_name": "Yerravaripalem",
            "admin_name1": "Andhra Pradesh",
            "latitude": "13.7167",
            "longitude": "79.15",
            "accuracy": "4"
        },
        {
            "key": "IN/517215",
            "place_name": "Talupula",
            "admin_name1": "Andhra Pradesh",
            "latitude": "14.25",
            "longitude": "78.2667"
        },
        {
            "key": "IN/517217",
            "place_name": "Jandla",
            "admin_name1": "Andhra Pradesh",
            "latitude": "13.7",
            "longitude": "78.7444"
        },
        {
            "key": "IN/517234",
            "place_name": "Kalikiri",
            "admin_name1": "Andhra Pradesh",
            "latitude": "13.6333",
            "longitude": "78.8",
            "accuracy": "4"
        },
        {
            "key": "IN/517236",
            "place_name": "Kalakada",
            "admin_name1": "Andhra Pradesh",
            "latitude": "13.8167",
            "longitude": "78.8",
            "accuracy": "4"
        },
        {
            "key": "IN/517239",
            "place_name": "Palamanda",
            "admin_name1": "Andhra Pradesh",
            "latitude": "13.725",
            "longitude": "78.8"
        },
        {
            "key": "IN/517240",
            "place_name": "Erra Kota Palle",
            "admin_name1": "Andhra Pradesh",
            "latitude": "13.7",
            "longitude": "78.7444"
        },
        {
            "key": "IN/517250",
            "place_name": "Vanamaladinne",
            "admin_name1": "Andhra Pradesh",
            "latitude": "13.7",
            "longitude": "78.7444"
        },
        {
            "key": "IN/517299",
            "place_name": "Vayalpad",
            "admin_name1": "Andhra Pradesh",
            "latitude": "13.65",
            "longitude": "78.6333",
            "accuracy": "4"
        },
        {
            "key": "IN/517301",
            "place_name": "Kali Cherla",
            "admin_name1": "Andhra Pradesh",
            "latitude": "13.55",
            "longitude": "78.5"
        },
        {
            "key": "IN/517319",
            "place_name": "Samudram",
            "admin_name1": "Andhra Pradesh",
            "latitude": "13.55",
            "longitude": "78.5"
        },
        {
            "key": "IN/517325",
            "place_name": "Madanapalle H O",
            "admin_name1": "Andhra Pradesh",
            "latitude": "13.55",
            "longitude": "78.5"
        },
        {
            "key": "IN/517327",
            "place_name": "Madanapalle",
            "admin_name1": "Andhra Pradesh",
            "latitude": "13.55",
            "longitude": "78.5",
            "accuracy": "4"
        },
        {
            "key": "IN/517408",
            "place_name": "Palamner H O",
            "admin_name1": "Andhra Pradesh",
            "latitude": "13.8183",
            "longitude": "78.91"
        },
        {
            "key": "IN/517415",
            "place_name": "Baireddi Palle",
            "admin_name1": "Andhra Pradesh",
            "latitude": "13.8183",
            "longitude": "78.91"
        },
        {
            "key": "IN/517416",
            "place_name": "Bangaru Palem",
            "admin_name1": "Andhra Pradesh",
            "latitude": "13.8183",
            "longitude": "78.91"
        },
        {
            "key": "IN/517422",
            "place_name": "Yadammarri",
            "admin_name1": "Andhra Pradesh",
            "latitude": "13.8183",
            "longitude": "78.91"
        },
        {
            "key": "IN/517501",
            "place_name": "Jagannathapuram",
            "admin_name1": "Andhra Pradesh",
            "latitude": "14.55",
            "longitude": "78.75"
        },
        {
            "key": "IN/517502",
            "place_name": "S V Agri College",
            "admin_name1": "Andhra Pradesh",
            "latitude": "14.55",
            "longitude": "78.75"
        },
        {
            "key": "IN/517503",
            "place_name": "Padi",
            "admin_name1": "Andhra Pradesh",
            "latitude": "14.55",
            "longitude": "78.75"
        },
        {
            "key": "IN/517507",
            "place_name": "S V Medical College",
            "admin_name1": "Andhra Pradesh",
            "latitude": "14.55",
            "longitude": "78.75"
        },
        {
            "key": "IN/517516",
            "place_name": "Sanam Batla",
            "admin_name1": "Andhra Pradesh",
            "latitude": "14.55",
            "longitude": "78.75"
        },